{"type":"FeatureCollection","features":[{"type":"Feature","properties":{"Title":"Puck","Author":"Ouida","Character":"Puck","Class":"Purebred","Location":"Mount Street","Longitude":"-0.150849","Latitude":"51.509877"},"geometry":{"type":"Point","coordinates":[-0.150849,51.509877]}},{"type":"Feature","properties":{"Title":"Puck","Author":"Ouida","Character":"Puck","Class":"Purebred","Location":"Peak Country","Longitude":"-1.757973","Latitude":"53.250797"},"geometry":{"type":"Point","coordinates":[-1.757973,53.250797]}},{"type":"Feature","properties":{"Title":"Puck","Author":"Ouida","Character":"Puck","Class":"Purebred","Location":"Derbyshire","Longitude":"-1.70377","Latitude":"53.226947"},"geometry":{"type":"Point","coordinates":[-1.70377,53.226947]}},{"type":"Feature","properties":{"Title":"Puck","Author":"Ouida","Character":"Puck","Class":"Purebred","Location":"Derbyshire (marketplace)","Longitude":"-1.562593","Latitude":"53.104738"},"geometry":{"type":"Point","coordinates":[-1.562593,53.104738]}},{"type":"Feature","properties":{"Title":"Puck","Author":"Ouida","Character":"Puck","Class":"Purebred","Location":"Fenland","Longitude":"-1.442462","Latitude":"53.227428"},"geometry":{"type":"Point","coordinates":[-1.442462,53.227428]}},{"type":"Feature","properties":{"Title":"Puck","Author":"Ouida","Character":"Puck","Class":"Purebred","Location":"London (eastern)","Longitude":"-0.071321","Latitude":"51.514246"},"geometry":{"type":"Point","coordinates":[-0.071321,51.514246]}},{"type":"Feature","properties":{"Title":"Puck","Author":"Ouida","Character":"Puck","Class":"Purebred","Location":"Forest of Compiegne ","Longitude":"2.883283","Latitude":"49.366749"},"geometry":{"type":"Point","coordinates":[2.883283,49.366749]}},{"type":"Feature","properties":{"Title":"Puck","Author":"Ouida","Character":"Puck","Class":"Purebred","Location":"Paris","Longitude":"2.352222","Latitude":"48.856613"},"geometry":{"type":"Point","coordinates":[2.352222,48.856613]}},{"type":"Feature","properties":{"Title":"Puck","Author":"Ouida","Character":"Puck","Class":"Purebred","Location":"Park","Longitude":"-0.15826","Latitude":"51.53141667"},"geometry":{"type":"Point","coordinates":[-0.15826,51.531417]}},{"type":"Feature","properties":{"Title":"Puck","Author":"Ouida","Character":"Puck","Class":"Purebred","Location":"Ladies Mile","Longitude":"-0.165772","Latitude":"51.507241"},"geometry":{"type":"Point","coordinates":[-0.165772,51.507241]}},{"type":"Feature","properties":{"Title":"Puck","Author":"Ouida","Character":"Puck","Class":"Purebred","Location":"Coronet theater","Longitude":"-0.19816","Latitude":"51.508648"},"geometry":{"type":"Point","coordinates":[-0.19816,51.508648]}},{"type":"Feature","properties":{"Title":"Puck","Author":"Ouida","Character":"Puck","Class":"Purebred","Location":"3 blocks from Coronet","Longitude":"-0.197114","Latitude":"51.508979"},"geometry":{"type":"Point","coordinates":[-0.197114,51.508979]}},{"type":"Feature","properties":{"Title":"Puck","Author":"Ouida","Character":"Puck","Class":"Purebred","Location":"Christies","Longitude":"-0.137379","Latitude":"51.506787"},"geometry":{"type":"Point","coordinates":[-0.137379,51.506787]}},{"type":"Feature","properties":{"Title":"Puck","Author":"Ouida","Character":"Puck","Class":"Purebred","Location":"Philips","Longitude":"-0.146963","Latitude":"51.510654"},"geometry":{"type":"Point","coordinates":[-0.146963,51.510654]}},{"type":"Feature","properties":{"Title":"Puck","Author":"Ouida","Character":"Puck","Class":"Purebred","Location":"Villa by the thames","Longitude":"-0.17689","Latitude":"51.478709"},"geometry":{"type":"Point","coordinates":[-0.17689,51.478709]}},{"type":"Feature","properties":{"Title":"Puck","Author":"Ouida","Character":"Puck","Class":"Purebred","Location":"Rotten Row","Longitude":"-0.165731","Latitude":"51.507282"},"geometry":{"type":"Point","coordinates":[-0.165731,51.507282]}},{"type":"Feature","properties":{"Title":"Puck","Author":"Ouida","Character":"Puck","Class":"Purebred","Location":"Pall Mall","Longitude":"-0.133994","Latitude":"51.506835"},"geometry":{"type":"Point","coordinates":[-0.133994,51.506835]}},{"type":"Feature","properties":{"Title":"Puck","Author":"Ouida","Character":"Puck","Class":"Purebred","Location":"St. James street","Longitude":"-0.139306","Latitude":"51.506727"},"geometry":{"type":"Point","coordinates":[-0.139306,51.506727]}},{"type":"Feature","properties":{"Title":"Puck","Author":"Ouida","Character":"Puck","Class":"Purebred","Location":"Dower house among the Fens","Longitude":"0.060341","Latitude":"52.56624"},"geometry":{"type":"Point","coordinates":[0.060341,52.56624]}},{"type":"Feature","properties":{"Title":"Puck","Author":"Ouida","Character":"Puck","Class":"Purebred","Location":"3 blocks from Coronet","Longitude":"-0.197114","Latitude":"51.508979"},"geometry":{"type":"Point","coordinates":[-0.197114,51.508979]}},{"type":"Feature","properties":{"Title":"Puck","Author":"Ouida","Character":"Puck","Class":"Purebred","Location":"London","Longitude":"-0.071321","Latitude":"51.514246"},"geometry":{"type":"Point","coordinates":[-0.071321,51.514246]}},{"type":"Feature","properties":{"Title":"Puck","Author":"Ouida","Character":"Puck","Class":"Purebred","Location":"3 blocks from Coronet","Longitude":"-0.197114","Latitude":"51.508979"},"geometry":{"type":"Point","coordinates":[-0.197114,51.508979]}},{"type":"Feature","properties":{"Title":"Puck","Author":"Ouida","Character":"Puck","Class":"Purebred","Location":"Coronet theater","Longitude":"-0.19816","Latitude":"51.508648"},"geometry":{"type":"Point","coordinates":[-0.19816,51.508648]}},{"type":"Feature","properties":{"Title":"Puck","Author":"Ouida","Character":"Puck","Class":"Purebred","Location":"Ascot","Longitude":"-0.675758","Latitude":"51.407888"},"geometry":{"type":"Point","coordinates":[-0.675758,51.407888]}},{"type":"Feature","properties":{"Title":"Puck","Author":"Ouida","Character":"Puck","Class":"Purebred","Location":"Germany","Longitude":"10.272262","Latitude":"51.038519"},"geometry":{"type":"Point","coordinates":[10.272262,51.038519]}},{"type":"Feature","properties":{"Title":"Puck","Author":"Ouida","Character":"Puck","Class":"Purebred","Location":"Bucks","Longitude":"-0.811092","Latitude":"51.865959"},"geometry":{"type":"Point","coordinates":[-0.811092,51.865959]}},{"type":"Feature","properties":{"Title":"Puck","Author":"Ouida","Character":"Puck","Class":"Purebred","Location":"Between civita vecchio and rome","Longitude":"12.11831","Latitude":"41.967678"},"geometry":{"type":"Point","coordinates":[12.11831,41.967678]}},{"type":"Feature","properties":{"Title":"Puck","Author":"Ouida","Character":"Puck","Class":"Purebred","Location":"Campagna","Longitude":"15.106184","Latitude":"40.667055"},"geometry":{"type":"Point","coordinates":[15.106184,40.667055]}},{"type":"Feature","properties":{"Title":"Puck","Author":"Ouida","Character":"Puck","Class":"Purebred","Location":"Rome","Longitude":"12.497667","Latitude":"41.90073"},"geometry":{"type":"Point","coordinates":[12.497667,41.90073]}},{"type":"Feature","properties":{"Title":"Puck","Author":"Ouida","Character":"Puck","Class":"Purebred","Location":"Ostia","Longitude":"12.286178","Latitude":"41.730319"},"geometry":{"type":"Point","coordinates":[12.286178,41.730319]}},{"type":"Feature","properties":{"Title":"Puck","Author":"Ouida","Character":"Puck","Class":"Purebred","Location":"Marseille ","Longitude":"5.374918","Latitude":"43.29571"},"geometry":{"type":"Point","coordinates":[5.374918,43.29571]}},{"type":"Feature","properties":{"Title":"Puck","Author":"Ouida","Character":"Puck","Class":"Purebred","Location":"Paris","Longitude":"2.352222","Latitude":"48.856613"},"geometry":{"type":"Point","coordinates":[2.352222,48.856613]}},{"type":"Feature","properties":{"Title":"Puck","Author":"Ouida","Character":"Puck","Class":"Purebred","Location":"Sevres","Longitude":"2.210543","Latitude":"48.821211"},"geometry":{"type":"Point","coordinates":[2.210543,48.821211]}},{"type":"Feature","properties":{"Title":"Puck","Author":"Ouida","Character":"Puck","Class":"Purebred","Location":"Versailles ","Longitude":"2.126302","Latitude":"48.800921"},"geometry":{"type":"Point","coordinates":[2.126302,48.800921]}},{"type":"Feature","properties":{"Title":"Puck","Author":"Ouida","Character":"Puck","Class":"Purebred","Location":"Silver stag","Longitude":"0.230698","Latitude":"43.993307"},"geometry":{"type":"Point","coordinates":[0.230698,43.993307]}},{"type":"Feature","properties":{"Title":"Puck","Author":"Ouida","Character":"Puck","Class":"Purebred","Location":"Paris","Longitude":"2.352222","Latitude":"48.856613"},"geometry":{"type":"Point","coordinates":[2.352222,48.856613]}},{"type":"Feature","properties":{"Title":"Puck","Author":"Ouida","Character":"Puck","Class":"Purebred","Location":"Coronet theater ","Longitude":"-0.19816","Latitude":"51.508648"},"geometry":{"type":"Point","coordinates":[-0.19816,51.508648]}},{"type":"Feature","properties":{"Title":"Puck","Author":"Ouida","Character":"Puck","Class":"Purebred","Location":"Rotten Row","Longitude":"-0.165731","Latitude":"51.507282"},"geometry":{"type":"Point","coordinates":[-0.165731,51.507282]}},{"type":"Feature","properties":{"Title":"Puck","Author":"Ouida","Character":"Puck","Class":"Purebred","Location":"Chelsea","Longitude":"-0.171009","Latitude":"51.486891"},"geometry":{"type":"Point","coordinates":[-0.171009,51.486891]}},{"type":"Feature","properties":{"Title":"Puck","Author":"Ouida","Character":"Puck","Class":"Purebred","Location":"South Kensington","Longitude":"-0.178883","Latitude":"51.496107"},"geometry":{"type":"Point","coordinates":[-0.178883,51.496107]}},{"type":"Feature","properties":{"Title":"Puck","Author":"Ouida","Character":"Puck","Class":"Purebred","Location":"Coronet theater","Longitude":"-0.19816","Latitude":"51.508648"},"geometry":{"type":"Point","coordinates":[-0.19816,51.508648]}},{"type":"Feature","properties":{"Title":"Puck","Author":"Ouida","Character":"Puck","Class":"Purebred","Location":"Henley ","Longitude":"-0.900181","Latitude":"51.550261"},"geometry":{"type":"Point","coordinates":[-0.900181,51.550261]}},{"type":"Feature","properties":{"Title":"Puck","Author":"Ouida","Character":"Puck","Class":"Purebred","Location":"Wargrave","Longitude":"-0.874927","Latitude":"51.501711"},"geometry":{"type":"Point","coordinates":[-0.874927,51.501711]}},{"type":"Feature","properties":{"Title":"Puck","Author":"Ouida","Character":"Puck","Class":"Purebred","Location":"Hyde park","Longitude":"-0.165772","Latitude":"51.507241"},"geometry":{"type":"Point","coordinates":[-0.165772,51.507241]}},{"type":"Feature","properties":{"Title":"Puck","Author":"Ouida","Character":"Puck","Class":"Purebred","Location":"South Kensington","Longitude":"-0.215595","Latitude":"51.514273"},"geometry":{"type":"Point","coordinates":[-0.215595,51.514273]}},{"type":"Feature","properties":{"Title":"Puck","Author":"Ouida","Character":"Puck","Class":"Purebred","Location":"South Kensington","Longitude":"-0.178883","Latitude":"51.496107"},"geometry":{"type":"Point","coordinates":[-0.178883,51.496107]}},{"type":"Feature","properties":{"Title":"Puck","Author":"Ouida","Character":"Puck","Class":"Purebred","Location":"Coronet theater","Longitude":"-0.19816","Latitude":"51.508648"},"geometry":{"type":"Point","coordinates":[-0.19816,51.508648]}},{"type":"Feature","properties":{"Title":"Puck","Author":"Ouida","Character":"Puck","Class":"Purebred","Location":"Paris","Longitude":"2.352222","Latitude":"48.856613"},"geometry":{"type":"Point","coordinates":[2.352222,48.856613]}},{"type":"Feature","properties":{"Title":"Puck","Author":"Ouida","Character":"Puck","Class":"Purebred","Location":"Silver stag","Longitude":"0.230698","Latitude":"43.993307"},"geometry":{"type":"Point","coordinates":[0.230698,43.993307]}},{"type":"Feature","properties":{"Title":"Puck","Author":"Ouida","Character":"Puck","Class":"Purebred","Location":"London","Longitude":"-0.071321","Latitude":"51.514246"},"geometry":{"type":"Point","coordinates":[-0.071321,51.514246]}},{"type":"Feature","properties":{"Title":"Puck","Author":"Ouida","Character":"Puck","Class":"Purebred","Location":"Peak Country","Longitude":"-1.757973","Latitude":"53.250797"},"geometry":{"type":"Point","coordinates":[-1.757973,53.250797]}},{"type":"Feature","properties":{"Title":"Puck","Author":"Ouida","Character":" Avice Dare","Class":"Lower_Class","Location":"Peak country/district. Upward end of the southern Pennines","Longitude":"-1.757973","Latitude":"53.250797"},"geometry":{"type":"Point","coordinates":[-1.757973,53.250797]}},{"type":"Feature","properties":{"Title":"Puck","Author":"Ouida","Character":" Avice Dare","Class":"Lower_Class","Location":"Derbyshire","Longitude":"-1.70377","Latitude":"53.226947"},"geometry":{"type":"Point","coordinates":[-1.70377,53.226947]}},{"type":"Feature","properties":{"Title":"Puck","Author":"Ouida","Character":" Avice Dare","Class":"Lower_Class","Location":"Derbyshire (marketplace)","Longitude":"-1.562593","Latitude":"53.104738"},"geometry":{"type":"Point","coordinates":[-1.562593,53.104738]}},{"type":"Feature","properties":{"Title":"Puck","Author":"Ouida","Character":" Avice Dare","Class":"Lower_Class","Location":"Derbyshire (Miner's Joy)","Longitude":"-1.491552","Latitude":"52.930704"},"geometry":{"type":"Point","coordinates":[-1.491552,52.930704]}},{"type":"Feature","properties":{"Title":"Puck","Author":"Ouida","Character":" Avice Dare","Class":"Lower_Class","Location":"London","Longitude":"-0.071321","Latitude":"51.514246"},"geometry":{"type":"Point","coordinates":[-0.071321,51.514246]}},{"type":"Feature","properties":{"Title":"Puck","Author":"Ouida","Character":"Reuben Dare","Class":"Lower_Class","Location":"Peak country","Longitude":"-1.757973","Latitude":"53.250797"},"geometry":{"type":"Point","coordinates":[-1.757973,53.250797]}},{"type":"Feature","properties":{"Title":"Puck","Author":"Ouida","Character":"Reuben Dare","Class":"Lower_Class","Location":"Ashford-in-the-water (Derbyshire)","Longitude":"-1.70377","Latitude":"53.226947"},"geometry":{"type":"Point","coordinates":[-1.70377,53.226947]}},{"type":"Feature","properties":{"Title":"Puck","Author":"Ouida","Character":"Reuben Dare","Class":"Lower_Class","Location":"Wye Dales","Longitude":"-3.176685","Latitude":"52.10696"},"geometry":{"type":"Point","coordinates":[-3.176685,52.10696]}},{"type":"Feature","properties":{"Title":"Puck","Author":"Ouida","Character":"Old Dick","Class":"Lower_Class","Location":"Peak Country","Longitude":"-1.757973","Latitude":"53.250797"},"geometry":{"type":"Point","coordinates":[-1.757973,53.250797]}},{"type":"Feature","properties":{"Title":"Puck","Author":"Ouida","Character":"Nell","Class":"Lower_Class","Location":"Peak country","Longitude":"-1.807781","Latitude":"53.24084"},"geometry":{"type":"Point","coordinates":[-1.807781,53.24084]}},{"type":"Feature","properties":{"Title":"Puck","Author":"Ouida","Character":"Trust","Class":"Pet","Location":"Peak country","Longitude":"-1.757973","Latitude":"53.250797"},"geometry":{"type":"Point","coordinates":[-1.757973,53.250797]}},{"type":"Feature","properties":{"Title":"Puck","Author":"Ouida","Character":"Old Smedly","Class":"Lower_Class","Location":"Peak Country","Longitude":"-1.757973","Latitude":"53.250797"},"geometry":{"type":"Point","coordinates":[-1.757973,53.250797]}},{"type":"Feature","properties":{"Title":"Puck","Author":"Ouida","Character":"Old Smedly","Class":"Lower_Class","Location":"Derbyshire (marketplace)","Longitude":"-1.562593","Latitude":"53.104738"},"geometry":{"type":"Point","coordinates":[-1.562593,53.104738]}},{"type":"Feature","properties":{"Title":"Puck","Author":"Ouida","Character":"No name","Class":"Pet","Location":"fenland","Longitude":"-1.442462","Latitude":"53.227428"},"geometry":{"type":"Point","coordinates":[-1.442462,53.227428]}},{"type":"Feature","properties":{"Title":"Puck","Author":"Ouida","Character":"Bill Jacobs","Class":"Lower_Class","Location":"Eastern London","Longitude":"-0.071321","Latitude":"51.514246"},"geometry":{"type":"Point","coordinates":[-0.071321,51.514246]}},{"type":"Feature","properties":{"Title":"Puck","Author":"Ouida","Character":"Bill Jacobs","Class":"Lower_Class","Location":"Rotten Row","Longitude":"-0.165731","Latitude":"51.507282"},"geometry":{"type":"Point","coordinates":[-0.165731,51.507282]}},{"type":"Feature","properties":{"Title":"Puck","Author":"Ouida","Character":"Jenny JacobsHuman","Class":"Lower_Class","Location":"Eastern London","Longitude":"-0.071321","Latitude":"51.514246"},"geometry":{"type":"Point","coordinates":[-0.071321,51.514246]}},{"type":"Feature","properties":{"Title":"Puck","Author":"Ouida","Character":"Unknown","Class":"Bait","Location":"Eastern London","Longitude":"-0.071321","Latitude":"51.514246"},"geometry":{"type":"Point","coordinates":[-0.071321,51.514246]}},{"type":"Feature","properties":{"Title":"Puck","Author":"Ouida","Character":"Tussler","Class":"Service_Animal","Location":"Eastern London","Longitude":"-0.071321","Latitude":"51.514246"},"geometry":{"type":"Point","coordinates":[-0.071321,51.514246]}},{"type":"Feature","properties":{"Title":"Puck","Author":"Ouida","Character":"Tussler","Class":"Service_Animal","Location":"Cornwall","Longitude":"-5.050809","Latitude":"50.302853"},"geometry":{"type":"Point","coordinates":[-5.050809,50.302853]}},{"type":"Feature","properties":{"Title":"Puck","Author":"Ouida","Character":"Tussler","Class":"Service_Animal","Location":"Penzance","Longitude":"-5.537896","Latitude":"50.120558"},"geometry":{"type":"Point","coordinates":[-5.537896,50.120558]}},{"type":"Feature","properties":{"Title":"Puck","Author":"Ouida","Character":"Unknown","Class":"Service_Animal","Location":"Eastern London","Longitude":"-0.071321","Latitude":"51.514246"},"geometry":{"type":"Point","coordinates":[-0.071321,51.514246]}},{"type":"Feature","properties":{"Title":"Puck","Author":"Ouida","Character":"Little Cosmo","Class":"Unknown","Location":"Eastern London","Longitude":"-0.071321","Latitude":"51.514246"},"geometry":{"type":"Point","coordinates":[-0.071321,51.514246]}},{"type":"Feature","properties":{"Title":"Puck","Author":"Ouida","Character":"Grey Friar's Bobby","Class":"Unknown","Location":"Edinboro","Longitude":"-3.191231","Latitude":"55.955196"},"geometry":{"type":"Point","coordinates":[-3.191231,55.955196]}},{"type":"Feature","properties":{"Title":"Puck","Author":"Ouida","Character":"King Arthur","Class":"Pet","Location":"Rotten Row","Longitude":"-0.165731","Latitude":"51.507282"},"geometry":{"type":"Point","coordinates":[-0.165731,51.507282]}},{"type":"Feature","properties":{"Title":"Puck","Author":"Ouida","Character":"Derry Denzil","Class":"Aristocracy","Location":"Paris","Longitude":"2.352222","Latitude":"48.856613"},"geometry":{"type":"Point","coordinates":[2.352222,48.856613]}},{"type":"Feature","properties":{"Title":"Puck","Author":"Ouida","Character":"Derry Denzil","Class":"Aristocracy","Location":"3 blocks from Coronet","Longitude":"-0.197114","Latitude":"51.508979"},"geometry":{"type":"Point","coordinates":[-0.197114,51.508979]}},{"type":"Feature","properties":{"Title":"Puck","Author":"Ouida","Character":"Derry Denzil","Class":"Aristocracy","Location":"Eton","Longitude":"-0.607984","Latitude":"51.48776"},"geometry":{"type":"Point","coordinates":[-0.607984,51.48776]}},{"type":"Feature","properties":{"Title":"Puck","Author":"Ouida","Character":"Derry Denzil","Class":"Aristocracy","Location":"Christ church","Longitude":"-1.247184","Latitude":"51.757151"},"geometry":{"type":"Point","coordinates":[-1.247184,51.757151]}},{"type":"Feature","properties":{"Title":"Puck","Author":"Ouida","Character":"Derry Denzil","Class":"Aristocracy","Location":"Eastern lands","Longitude":"79.715028","Latitude":"22.953366"},"geometry":{"type":"Point","coordinates":[79.715028,22.953366]}},{"type":"Feature","properties":{"Title":"Puck","Author":"Ouida","Character":"Derry Denzil","Class":"Aristocracy","Location":"Rotten Row","Longitude":"-0.165731","Latitude":"51.507282"},"geometry":{"type":"Point","coordinates":[-0.165731,51.507282]}},{"type":"Feature","properties":{"Title":"Puck","Author":"Ouida","Character":"Derry Denzil","Class":"Aristocracy","Location":"3 blocks from Coronet","Longitude":"-0.197114","Latitude":"51.508979"},"geometry":{"type":"Point","coordinates":[-0.197114,51.508979]}},{"type":"Feature","properties":{"Title":"Puck","Author":"Ouida","Character":"Derry Denzil","Class":"Aristocracy","Location":"Coronet theater","Longitude":"-0.19816","Latitude":"51.508648"},"geometry":{"type":"Point","coordinates":[-0.19816,51.508648]}},{"type":"Feature","properties":{"Title":"Puck","Author":"Ouida","Character":"Derry Denzil","Class":"Aristocracy","Location":"Henley ","Longitude":"-0.900181","Latitude":"51.550261"},"geometry":{"type":"Point","coordinates":[-0.900181,51.550261]}},{"type":"Feature","properties":{"Title":"Puck","Author":"Ouida","Character":"Derry Denzil","Class":"Aristocracy","Location":"Wargrave","Longitude":"-0.874927","Latitude":"51.501711"},"geometry":{"type":"Point","coordinates":[-0.874927,51.501711]}},{"type":"Feature","properties":{"Title":"Puck","Author":"Ouida","Character":"Derry Denzil","Class":"Aristocracy","Location":"Coronet theater","Longitude":"-0.19816","Latitude":"51.508648"},"geometry":{"type":"Point","coordinates":[-0.19816,51.508648]}},{"type":"Feature","properties":{"Title":"Puck","Author":"Ouida","Character":"Derry Denzil","Class":"Aristocracy","Location":"Paris","Longitude":"2.352222","Latitude":"48.856613"},"geometry":{"type":"Point","coordinates":[2.352222,48.856613]}},{"type":"Feature","properties":{"Title":"Puck","Author":"Ouida","Character":"Leopold Lance","Class":"Aristocracy","Location":"The Coronet theater","Longitude":"-0.19816","Latitude":"51.508648"},"geometry":{"type":"Point","coordinates":[-0.19816,51.508648]}},{"type":"Feature","properties":{"Title":"Puck","Author":"Ouida","Character":"Leopold Lance","Class":"Aristocracy","Location":"3 blocks from Coronet ","Longitude":"-0.197114","Latitude":"51.508979"},"geometry":{"type":"Point","coordinates":[-0.197114,51.508979]}},{"type":"Feature","properties":{"Title":"Puck","Author":"Ouida","Character":"Leopold Lance","Class":"Aristocracy","Location":"St James street","Longitude":"-0.139306","Latitude":"51.506727"},"geometry":{"type":"Point","coordinates":[-0.139306,51.506727]}},{"type":"Feature","properties":{"Title":"Puck","Author":"Ouida","Character":"Fanfreluche","Class":"Purebred","Location":"Paris","Longitude":"2.352222","Latitude":"48.856613"},"geometry":{"type":"Point","coordinates":[2.352222,48.856613]}},{"type":"Feature","properties":{"Title":"Puck","Author":"Ouida","Character":"Fanfreluche","Class":"Purebred","Location":"Park","Longitude":"-0.165772","Latitude":"51.507241"},"geometry":{"type":"Point","coordinates":[-0.165772,51.507241]}},{"type":"Feature","properties":{"Title":"Puck","Author":"Ouida","Character":"Fanfreluche","Class":"Purebred","Location":"Ladies Mile","Longitude":"-0.165772","Latitude":"51.507241"},"geometry":{"type":"Point","coordinates":[-0.165772,51.507241]}},{"type":"Feature","properties":{"Title":"Puck","Author":"Ouida","Character":"Fanfreluche","Class":"Purebred","Location":"Leviathon","Longitude":"-0.082225","Latitude":"51.512714"},"geometry":{"type":"Point","coordinates":[-0.082225,51.512714]}},{"type":"Feature","properties":{"Title":"Puck","Author":"Ouida","Character":"Fanfreluche","Class":"Purebred","Location":"The Coronet theater","Longitude":"-0.19816","Latitude":"51.508648"},"geometry":{"type":"Point","coordinates":[-0.19816,51.508648]}},{"type":"Feature","properties":{"Title":"Puck","Author":"Ouida","Character":"Fanfreluche","Class":"Purebred","Location":"Rotten Row","Longitude":"-0.165731","Latitude":"51.507282"},"geometry":{"type":"Point","coordinates":[-0.165731,51.507282]}},{"type":"Feature","properties":{"Title":"Puck","Author":"Ouida","Character":"Fanfreluche","Class":"Purebred","Location":"Leviathon","Longitude":"-0.082225","Latitude":"51.512714"},"geometry":{"type":"Point","coordinates":[-0.082225,51.512714]}},{"type":"Feature","properties":{"Title":"Puck","Author":"Ouida","Character":"Fanfreluche","Class":"Purebred","Location":"Ascot","Longitude":"-0.675547","Latitude":"51.407659"},"geometry":{"type":"Point","coordinates":[-0.675547,51.407659]}},{"type":"Feature","properties":{"Title":"Puck","Author":"Ouida","Character":"Fanfreluche","Class":"Purebred","Location":"Maidenhead","Longitude":"-0.72284","Latitude":"51.525907"},"geometry":{"type":"Point","coordinates":[-0.72284,51.525907]}},{"type":"Feature","properties":{"Title":"Puck","Author":"Ouida","Character":"Fanfreluche","Class":"Purebred","Location":"Bucks","Longitude":"-0.811092","Latitude":"51.865959"},"geometry":{"type":"Point","coordinates":[-0.811092,51.865959]}},{"type":"Feature","properties":{"Title":"Puck","Author":"Ouida","Character":"Fanfreluche","Class":"Purebred","Location":"Coronet theater","Longitude":"-0.19816","Latitude":"51.508648"},"geometry":{"type":"Point","coordinates":[-0.19816,51.508648]}},{"type":"Feature","properties":{"Title":"Puck","Author":"Ouida","Character":"Fanfreluche","Class":"Purebred","Location":"Rotten Row","Longitude":"-0.165731","Latitude":"51.507282"},"geometry":{"type":"Point","coordinates":[-0.165731,51.507282]}},{"type":"Feature","properties":{"Title":"Puck","Author":"Ouida","Character":"Fanfreluche","Class":"Purebred","Location":"Belvoir","Longitude":"-0.776149","Latitude":"52.889865"},"geometry":{"type":"Point","coordinates":[-0.776149,52.889865]}},{"type":"Feature","properties":{"Title":"Puck","Author":"Ouida","Character":"Fanfreluche","Class":"Purebred","Location":"Richmond","Longitude":"-0.303846","Latitude":"51.4642"},"geometry":{"type":"Point","coordinates":[-0.303846,51.4642]}},{"type":"Feature","properties":{"Title":"Puck","Author":"Ouida","Character":"Fanfreluche","Class":"Purebred","Location":"Coronet theater","Longitude":"-0.19816","Latitude":"51.508648"},"geometry":{"type":"Point","coordinates":[-0.19816,51.508648]}},{"type":"Feature","properties":{"Title":"Puck","Author":"Ouida","Character":"Fanfreluche","Class":"Purebred","Location":"West of Ireland ","Longitude":"-9.057684","Latitude":"53.276897"},"geometry":{"type":"Point","coordinates":[-9.057684,53.276897]}},{"type":"Feature","properties":{"Title":"Puck","Author":"Ouida","Character":"Fanfreluche","Class":"Purebred","Location":"Hyde park","Longitude":"-0.165772","Latitude":"51.507241"},"geometry":{"type":"Point","coordinates":[-0.165772,51.507241]}},{"type":"Feature","properties":{"Title":"Puck","Author":"Ouida","Character":"Fanfreluche","Class":"Purebred","Location":"South kensington","Longitude":"-0.215595","Latitude":"51.514273"},"geometry":{"type":"Point","coordinates":[-0.215595,51.514273]}},{"type":"Feature","properties":{"Title":"Puck","Author":"Ouida","Character":"Fanfreluche","Class":"Purebred","Location":"South Kensington","Longitude":"-0.178883","Latitude":"51.496107"},"geometry":{"type":"Point","coordinates":[-0.178883,51.496107]}},{"type":"Feature","properties":{"Title":"Puck","Author":"Ouida","Character":"Laura Pearl","Class":"Working_Class","Location":"Houndsditch or Shoreditch","Longitude":"-0.078989","Latitude":"51.515727"},"geometry":{"type":"Point","coordinates":[-0.078989,51.515727]}},{"type":"Feature","properties":{"Title":"Puck","Author":"Ouida","Character":"Laura Pearl","Class":"Working_Class","Location":"Baden","Longitude":"8.226383","Latitude":"48.772326"},"geometry":{"type":"Point","coordinates":[8.226383,48.772326]}},{"type":"Feature","properties":{"Title":"Puck","Author":"Ouida","Character":"Laura Pearl","Class":"Working_Class","Location":"Paris","Longitude":"2.352222","Latitude":"48.856613"},"geometry":{"type":"Point","coordinates":[2.352222,48.856613]}},{"type":"Feature","properties":{"Title":"Puck","Author":"Ouida","Character":"Laura Pearl","Class":"Working_Class","Location":"Park","Longitude":"0.156833333","Latitude":"51.53141667"},"geometry":{"type":"Point","coordinates":[0.156833,51.531417]}},{"type":"Feature","properties":{"Title":"Puck","Author":"Ouida","Character":"Laura Pearl","Class":"Working_Class","Location":"Ladies Mile","Longitude":"-0.165772","Latitude":"51.507241"},"geometry":{"type":"Point","coordinates":[-0.165772,51.507241]}},{"type":"Feature","properties":{"Title":"Puck","Author":"Ouida","Character":"Laura Pearl","Class":"Working_Class","Location":"Coronet theater","Longitude":"-0.19816","Latitude":"51.508648"},"geometry":{"type":"Point","coordinates":[-0.19816,51.508648]}},{"type":"Feature","properties":{"Title":"Puck","Author":"Ouida","Character":"Laura Pearl","Class":"Working_Class","Location":"Rotten Row","Longitude":"-0.165731","Latitude":"51.507282"},"geometry":{"type":"Point","coordinates":[-0.165731,51.507282]}},{"type":"Feature","properties":{"Title":"Puck","Author":"Ouida","Character":"Laura Pearl","Class":"Working_Class","Location":"Leviathon","Longitude":"-0.082225","Latitude":"51.512714"},"geometry":{"type":"Point","coordinates":[-0.082225,51.512714]}},{"type":"Feature","properties":{"Title":"Puck","Author":"Ouida","Character":"Laura Pearl","Class":"Working_Class","Location":"3 blocks from Coronet","Longitude":"-0.197114","Latitude":"51.508979"},"geometry":{"type":"Point","coordinates":[-0.197114,51.508979]}},{"type":"Feature","properties":{"Title":"Puck","Author":"Ouida","Character":"Laura Pearl","Class":"Working_Class","Location":"Richmond park","Longitude":"-0.274554","Latitude":"51.441152"},"geometry":{"type":"Point","coordinates":[-0.274554,51.441152]}},{"type":"Feature","properties":{"Title":"Puck","Author":"Ouida","Character":"Laura Pearl","Class":"Working_Class","Location":"Kensington gardens","Longitude":"-0.179422","Latitude":"51.506933"},"geometry":{"type":"Point","coordinates":[-0.179422,51.506933]}},{"type":"Feature","properties":{"Title":"Puck","Author":"Ouida","Character":"Laura Pearl","Class":"Working_Class","Location":"Leviathon","Longitude":"-0.082225","Latitude":"51.512714"},"geometry":{"type":"Point","coordinates":[-0.082225,51.512714]}},{"type":"Feature","properties":{"Title":"Puck","Author":"Ouida","Character":"Laura Pearl","Class":"Working_Class","Location":"Coronet theater","Longitude":"-0.19816","Latitude":"51.508648"},"geometry":{"type":"Point","coordinates":[-0.19816,51.508648]}},{"type":"Feature","properties":{"Title":"Puck","Author":"Ouida","Character":"Laura Pearl","Class":"Working_Class","Location":"Ascot","Longitude":"-0.675758","Latitude":"51.407888"},"geometry":{"type":"Point","coordinates":[-0.675758,51.407888]}},{"type":"Feature","properties":{"Title":"Puck","Author":"Ouida","Character":"Laura Pearl","Class":"Working_Class","Location":"Bucks","Longitude":"-0.811092","Latitude":"51.865959"},"geometry":{"type":"Point","coordinates":[-0.811092,51.865959]}},{"type":"Feature","properties":{"Title":"Puck","Author":"Ouida","Character":"Laura Pearl","Class":"Working_Class","Location":"Paris","Longitude":"2.352222","Latitude":"48.856613"},"geometry":{"type":"Point","coordinates":[2.352222,48.856613]}},{"type":"Feature","properties":{"Title":"Puck","Author":"Ouida","Character":"Laura Pearl","Class":"Working_Class","Location":"Bois","Longitude":"2.248983","Latitude":"48.862378"},"geometry":{"type":"Point","coordinates":[2.248983,48.862378]}},{"type":"Feature","properties":{"Title":"Puck","Author":"Ouida","Character":"Laura Pearl","Class":"Working_Class","Location":"Hyde park","Longitude":"-0.165772","Latitude":"51.507241"},"geometry":{"type":"Point","coordinates":[-0.165772,51.507241]}},{"type":"Feature","properties":{"Title":"Puck","Author":"Ouida","Character":"Laura Pearl","Class":"Working_Class","Location":"Belgrave square","Longitude":"-0.153563","Latitude":"51.499257"},"geometry":{"type":"Point","coordinates":[-0.153563,51.499257]}},{"type":"Feature","properties":{"Title":"Puck","Author":"Ouida","Character":"Laura Pearl","Class":"Working_Class","Location":"Coronet theater","Longitude":"-0.19816","Latitude":"51.508648"},"geometry":{"type":"Point","coordinates":[-0.19816,51.508648]}},{"type":"Feature","properties":{"Title":"Puck","Author":"Ouida","Character":"Laura Pearl","Class":"Working_Class","Location":"South Kensington ","Longitude":"-0.178883","Latitude":"51.496107"},"geometry":{"type":"Point","coordinates":[-0.178883,51.496107]}},{"type":"Feature","properties":{"Title":"Puck","Author":"Ouida","Character":"Laura Pearl","Class":"Working_Class","Location":"Coronet theater","Longitude":"-0.19816","Latitude":"51.508648"},"geometry":{"type":"Point","coordinates":[-0.19816,51.508648]}},{"type":"Feature","properties":{"Title":"Puck","Author":"Ouida","Character":"Laura Pearl","Class":"Working_Class","Location":"London","Longitude":"-0.127758","Latitude":"51.507351"},"geometry":{"type":"Point","coordinates":[-0.127758,51.507351]}},{"type":"Feature","properties":{"Title":"Puck","Author":"Ouida","Character":"Fr_d_gonde","Class":"Aristocracy","Location":"Paris","Longitude":"2.352222","Latitude":"48.856613"},"geometry":{"type":"Point","coordinates":[2.352222,48.856613]}},{"type":"Feature","properties":{"Title":"Puck","Author":"Ouida","Character":"Vere Beltran","Class":"Aristocracy","Location":"Paris","Longitude":"2.352222","Latitude":"48.856613"},"geometry":{"type":"Point","coordinates":[2.352222,48.856613]}},{"type":"Feature","properties":{"Title":"Puck","Author":"Ouida","Character":"Vere Beltran","Class":"Aristocracy","Location":"The Coronet theater","Longitude":"-0.19816","Latitude":"51.508648"},"geometry":{"type":"Point","coordinates":[-0.19816,51.508648]}},{"type":"Feature","properties":{"Title":"Puck","Author":"Ouida","Character":"Vere Beltran","Class":"Aristocracy","Location":"Cocod_s","Longitude":"-1.518636","Latitude":"52.500117"},"geometry":{"type":"Point","coordinates":[-1.518636,52.500117]}},{"type":"Feature","properties":{"Title":"Puck","Author":"Ouida","Character":"Vere Beltran","Class":"Aristocracy","Location":"3 blocks from Coronet","Longitude":"-0.197114","Latitude":"51.508979"},"geometry":{"type":"Point","coordinates":[-0.197114,51.508979]}},{"type":"Feature","properties":{"Title":"Puck","Author":"Ouida","Character":"Vere Beltran","Class":"Aristocracy","Location":"Christies","Longitude":"-1.518636","Latitude":"52.500117"},"geometry":{"type":"Point","coordinates":[-1.518636,52.500117]}},{"type":"Feature","properties":{"Title":"Puck","Author":"Ouida","Character":"Vere Beltran","Class":"Aristocracy","Location":"Philips","Longitude":"-1.518636","Latitude":"52.500117"},"geometry":{"type":"Point","coordinates":[-1.518636,52.500117]}},{"type":"Feature","properties":{"Title":"Puck","Author":"Ouida","Character":"Vere Beltran","Class":"Aristocracy","Location":"Villa by Thames","Longitude":"-0.902534","Latitude":"51.53721"},"geometry":{"type":"Point","coordinates":[-0.902534,51.53721]}},{"type":"Feature","properties":{"Title":"Puck","Author":"Ouida","Character":"Vere Beltran","Class":"Aristocracy","Location":"Rotten Row","Longitude":"-0.165731","Latitude":"51.507282"},"geometry":{"type":"Point","coordinates":[-0.165731,51.507282]}},{"type":"Feature","properties":{"Title":"Puck","Author":"Ouida","Character":"Vere Beltran","Class":"Aristocracy","Location":"Paul mall","Longitude":"-2.6345","Latitude":"53.64691"},"geometry":{"type":"Point","coordinates":[-2.6345,53.64691]}},{"type":"Feature","properties":{"Title":"Puck","Author":"Ouida","Character":"Vere Beltran","Class":"Aristocracy","Location":"Saint James st","Longitude":"-1.47094","Latitude":"53.38278"},"geometry":{"type":"Point","coordinates":[-1.47094,53.38278]}},{"type":"Feature","properties":{"Title":"Puck","Author":"Ouida","Character":"Vere Beltran","Class":"Aristocracy","Location":"3 blocks from Coronet","Longitude":"-0.197114","Latitude":"51.508979"},"geometry":{"type":"Point","coordinates":[-0.197114,51.508979]}},{"type":"Feature","properties":{"Title":"Puck","Author":"Ouida","Character":"Vere Beltran","Class":"Aristocracy","Location":"St James street","Longitude":"-1.47094","Latitude":"53.38278"},"geometry":{"type":"Point","coordinates":[-1.47094,53.38278]}},{"type":"Feature","properties":{"Title":"Puck","Author":"Ouida","Character":"Vere Beltran","Class":"Aristocracy","Location":"3 blocks from Coronet","Longitude":"-0.197114","Latitude":"51.508979"},"geometry":{"type":"Point","coordinates":[-0.197114,51.508979]}},{"type":"Feature","properties":{"Title":"Puck","Author":"Ouida","Character":"Vere Beltran","Class":"Aristocracy","Location":"Greenwich","Longitude":"0.00953","Latitude":"51.49498"},"geometry":{"type":"Point","coordinates":[0.00953,51.49498]}},{"type":"Feature","properties":{"Title":"Puck","Author":"Ouida","Character":"Vere Beltran","Class":"Aristocracy","Location":"London","Longitude":"-0.127758","Latitude":"51.507351"},"geometry":{"type":"Point","coordinates":[-0.127758,51.507351]}},{"type":"Feature","properties":{"Title":"Puck","Author":"Ouida","Character":"Vere Beltran","Class":"Aristocracy","Location":"Coronet theater","Longitude":"-0.19816","Latitude":"51.508648"},"geometry":{"type":"Point","coordinates":[-0.19816,51.508648]}},{"type":"Feature","properties":{"Title":"Puck","Author":"Ouida","Character":"Vere Beltran","Class":"Aristocracy","Location":"Ascot","Longitude":"-0.675758","Latitude":"51.407888"},"geometry":{"type":"Point","coordinates":[-0.675758,51.407888]}},{"type":"Feature","properties":{"Title":"Puck","Author":"Ouida","Character":"Vere Beltran","Class":"Aristocracy","Location":"Germany","Longitude":"10.451526","Latitude":"51.165691"},"geometry":{"type":"Point","coordinates":[10.451526,51.165691]}},{"type":"Feature","properties":{"Title":"Puck","Author":"Ouida","Character":"Vere Beltran","Class":"Aristocracy","Location":"Bucks","Longitude":"-0.811092","Latitude":"51.865959"},"geometry":{"type":"Point","coordinates":[-0.811092,51.865959]}},{"type":"Feature","properties":{"Title":"Puck","Author":"Ouida","Character":"Vere Beltran","Class":"Aristocracy","Location":"Coronet theater","Longitude":"-0.19816","Latitude":"51.508648"},"geometry":{"type":"Point","coordinates":[-0.19816,51.508648]}},{"type":"Feature","properties":{"Title":"Puck","Author":"Ouida","Character":"Vere Beltran","Class":"Aristocracy","Location":"Rotten Row","Longitude":"-0.165731","Latitude":"51.507282"},"geometry":{"type":"Point","coordinates":[-0.165731,51.507282]}},{"type":"Feature","properties":{"Title":"Puck","Author":"Ouida","Character":"Vere Beltran","Class":"Aristocracy","Location":"Africa","Longitude":"38.218992","Latitude":"0.549618"},"geometry":{"type":"Point","coordinates":[38.218992,0.549618]}},{"type":"Feature","properties":{"Title":"Puck","Author":"Ouida","Character":"Vere Beltran","Class":"Aristocracy","Location":"Chelsea","Longitude":"-0.171009","Latitude":"51.486891"},"geometry":{"type":"Point","coordinates":[-0.171009,51.486891]}},{"type":"Feature","properties":{"Title":"Puck","Author":"Ouida","Character":"Vere Beltran","Class":"Aristocracy","Location":"South Kensington ","Longitude":"-0.178883","Latitude":"51.496107"},"geometry":{"type":"Point","coordinates":[-0.178883,51.496107]}},{"type":"Feature","properties":{"Title":"Puck","Author":"Ouida","Character":"Vere Beltran","Class":"Aristocracy","Location":"Richmond","Longitude":"-0.303846","Latitude":"51.4642"},"geometry":{"type":"Point","coordinates":[-0.303846,51.4642]}},{"type":"Feature","properties":{"Title":"Puck","Author":"Ouida","Character":"Vere Beltran","Class":"Aristocracy","Location":"Coronet theater","Longitude":"-0.19816","Latitude":"51.508648"},"geometry":{"type":"Point","coordinates":[-0.19816,51.508648]}},{"type":"Feature","properties":{"Title":"Puck","Author":"Ouida","Character":"Vere Beltran","Class":"Aristocracy","Location":"West of ireland","Longitude":"-9.056988","Latitude":"53.275475"},"geometry":{"type":"Point","coordinates":[-9.056988,53.275475]}},{"type":"Feature","properties":{"Title":"Puck","Author":"Ouida","Character":"Vere Beltran","Class":"Aristocracy","Location":"Henley","Longitude":"-0.90464","Latitude":"51.53753"},"geometry":{"type":"Point","coordinates":[-0.90464,51.53753]}},{"type":"Feature","properties":{"Title":"Puck","Author":"Ouida","Character":"Vere Beltran","Class":"Aristocracy","Location":"Wargrave ","Longitude":"-0.864929","Latitude":"51.500265"},"geometry":{"type":"Point","coordinates":[-0.864929,51.500265]}},{"type":"Feature","properties":{"Title":"Puck","Author":"Ouida","Character":"Vere Beltran","Class":"Aristocracy","Location":"Hyde park","Longitude":"-0.165772","Latitude":"51.507241"},"geometry":{"type":"Point","coordinates":[-0.165772,51.507241]}},{"type":"Feature","properties":{"Title":"Puck","Author":"Ouida","Character":"Vere Beltran","Class":"Aristocracy","Location":"South Kensington ","Longitude":"-0.178883","Latitude":"51.496107"},"geometry":{"type":"Point","coordinates":[-0.178883,51.496107]}},{"type":"Feature","properties":{"Title":"Puck","Author":"Ouida","Character":"Vere Beltran","Class":"Aristocracy","Location":"South Kensington","Longitude":"-0.215595","Latitude":"51.514273"},"geometry":{"type":"Point","coordinates":[-0.215595,51.514273]}},{"type":"Feature","properties":{"Title":"Puck","Author":"Ouida","Character":"Vere Beltran","Class":"Aristocracy","Location":"Coronet theater","Longitude":"-0.19816","Latitude":"51.508648"},"geometry":{"type":"Point","coordinates":[-0.19816,51.508648]}},{"type":"Feature","properties":{"Title":"Puck","Author":"Ouida","Character":"Vere Beltran","Class":"Aristocracy","Location":"Paris","Longitude":"2.347395","Latitude":"48.857419"},"geometry":{"type":"Point","coordinates":[2.347395,48.857419]}},{"type":"Feature","properties":{"Title":"Puck","Author":"Ouida","Character":"Marquis of Montferrat","Class":"Aristocracy","Location":"Paris","Longitude":"2.347395","Latitude":"48.857419"},"geometry":{"type":"Point","coordinates":[2.347395,48.857419]}},{"type":"Feature","properties":{"Title":"Puck","Author":"Ouida","Character":"Marmion Eagle","Class":"Working_Class","Location":"Chelsea","Longitude":"-0.171009","Latitude":"51.486891"},"geometry":{"type":"Point","coordinates":[-0.171009,51.486891]}},{"type":"Feature","properties":{"Title":"Puck","Author":"Ouida","Character":"Marmion Eagle","Class":"Working_Class","Location":"Rotten Row ","Longitude":"-0.165731","Latitude":"51.507282"},"geometry":{"type":"Point","coordinates":[-0.165731,51.507282]}},{"type":"Feature","properties":{"Title":"Puck","Author":"Ouida","Character":"Marmion Eagle","Class":"Working_Class","Location":"Bois","Longitude":"2.248983","Latitude":"48.862378"},"geometry":{"type":"Point","coordinates":[2.248983,48.862378]}},{"type":"Feature","properties":{"Title":"Puck","Author":"Ouida","Character":"Marmion Eagle","Class":"Working_Class","Location":"Chelsea","Longitude":"-0.171009","Latitude":"51.486891"},"geometry":{"type":"Point","coordinates":[-0.171009,51.486891]}},{"type":"Feature","properties":{"Title":"Puck","Author":"Ouida","Character":"St. John Milton","Class":"Service_Animal","Location":"Chelsea","Longitude":"-0.171009","Latitude":"51.486891"},"geometry":{"type":"Point","coordinates":[-0.171009,51.486891]}},{"type":"Feature","properties":{"Title":"Puck","Author":"Ouida","Character":"Unnamed","Class":"Service_Animal","Location":"England","Longitude":"-1.694417","Latitude":"52.45997"},"geometry":{"type":"Point","coordinates":[-1.694417,52.45997]}},{"type":"Feature","properties":{"Title":"Puck","Author":"Ouida","Character":"Unnamed","Class":"Aristocracy","Location":"England","Longitude":"-1.694417","Latitude":"52.45997"},"geometry":{"type":"Point","coordinates":[-1.694417,52.45997]}},{"type":"Feature","properties":{"Title":"Puck","Author":"Ouida","Character":"Lord George","Class":"Aristocracy","Location":"England","Longitude":"-1.694417","Latitude":"52.45997"},"geometry":{"type":"Point","coordinates":[-1.694417,52.45997]}},{"type":"Feature","properties":{"Title":"Puck","Author":"Ouida","Character":"Paget Desmond","Class":"Aristocracy","Location":"The Coronet","Longitude":"-0.19816","Latitude":"51.508648"},"geometry":{"type":"Point","coordinates":[-0.19816,51.508648]}},{"type":"Feature","properties":{"Title":"Puck","Author":"Ouida","Character":"Paget Desmond","Class":"Aristocracy","Location":"3 blocks from Coronet","Longitude":"-0.197114","Latitude":"51.508979"},"geometry":{"type":"Point","coordinates":[-0.197114,51.508979]}},{"type":"Feature","properties":{"Title":"Puck","Author":"Ouida","Character":"Paget Desmond","Class":"Aristocracy","Location":"Rotten Row","Longitude":"-0.165731","Latitude":"51.507282"},"geometry":{"type":"Point","coordinates":[-0.165731,51.507282]}},{"type":"Feature","properties":{"Title":"Puck","Author":"Ouida","Character":"Paget Desmond","Class":"Aristocracy","Location":"St James street","Longitude":"-0.139306","Latitude":"51.506727"},"geometry":{"type":"Point","coordinates":[-0.139306,51.506727]}},{"type":"Feature","properties":{"Title":"Puck","Author":"Ouida","Character":"Paget Desmond","Class":"Aristocracy","Location":"Coronet theater","Longitude":"-0.19816","Latitude":"51.508648"},"geometry":{"type":"Point","coordinates":[-0.19816,51.508648]}},{"type":"Feature","properties":{"Title":"Puck","Author":"Ouida","Character":"Dudley Moore,","Class":"Aristocracy","Location":"The Coronet","Longitude":"-0.19816","Latitude":"51.508648"},"geometry":{"type":"Point","coordinates":[-0.19816,51.508648]}},{"type":"Feature","properties":{"Title":"Puck","Author":"Ouida","Character":"Dudley Moore,","Class":"Aristocracy","Location":"3 blocks from Coronet","Longitude":"-0.197114","Latitude":"51.508979"},"geometry":{"type":"Point","coordinates":[-0.197114,51.508979]}},{"type":"Feature","properties":{"Title":"Puck","Author":"Ouida","Character":"Dudley Moore,","Class":"Aristocracy","Location":"Coronet theater","Longitude":"-0.19816","Latitude":"51.508648"},"geometry":{"type":"Point","coordinates":[-0.19816,51.508648]}},{"type":"Feature","properties":{"Title":"Puck","Author":"Ouida","Character":"Dudley Moore,","Class":"Aristocracy","Location":"Chelsea","Longitude":"-0.171009","Latitude":"51.486891"},"geometry":{"type":"Point","coordinates":[-0.171009,51.486891]}},{"type":"Feature","properties":{"Title":"Puck","Author":"Ouida","Character":"Dudley Moore,","Class":"Aristocracy","Location":"Coronet theater","Longitude":"-0.19816","Latitude":"51.508648"},"geometry":{"type":"Point","coordinates":[-0.19816,51.508648]}},{"type":"Feature","properties":{"Title":"Puck","Author":"Ouida","Character":"Bronze","Class":"Working_Class","Location":"The country","Longitude":"-1.442462","Latitude":"53.227428"},"geometry":{"type":"Point","coordinates":[-1.442462,53.227428]}},{"type":"Feature","properties":{"Title":"Puck","Author":"Ouida","Character":"Bronze","Class":"Working_Class","Location":"London","Longitude":"-0.071321","Latitude":"51.514246"},"geometry":{"type":"Point","coordinates":[-0.071321,51.514246]}},{"type":"Feature","properties":{"Title":"Puck","Author":"Ouida","Character":"Bronze","Class":"Working_Class","Location":"Rotten Row","Longitude":"-0.165731","Latitude":"51.507282"},"geometry":{"type":"Point","coordinates":[-0.165731,51.507282]}},{"type":"Feature","properties":{"Title":"Puck","Author":"Ouida","Character":"Bronze","Class":"Working_Class","Location":"London","Longitude":"-0.071321","Latitude":"51.514246"},"geometry":{"type":"Point","coordinates":[-0.071321,51.514246]}},{"type":"Feature","properties":{"Title":"Puck","Author":"Ouida","Character":"Bronze","Class":"Working_Class","Location":"Esher ","Longitude":"-0.36567","Latitude":"51.369621"},"geometry":{"type":"Point","coordinates":[-0.36567,51.369621]}},{"type":"Feature","properties":{"Title":"Puck","Author":"Ouida","Character":"Harold Gerant","Class":"Poor","Location":"The country","Longitude":"-1.442462","Latitude":"53.227428"},"geometry":{"type":"Point","coordinates":[-1.442462,53.227428]}},{"type":"Feature","properties":{"Title":"Puck","Author":"Ouida","Character":"Harold Gerant","Class":"Poor","Location":"London","Longitude":"-0.071321","Latitude":"51.514246"},"geometry":{"type":"Point","coordinates":[-0.071321,51.514246]}},{"type":"Feature","properties":{"Title":"Puck","Author":"Ouida","Character":"Harold Gerant","Class":"Poor","Location":"Whitefriars","Longitude":"-0.107198","Latitude":"51.513757"},"geometry":{"type":"Point","coordinates":[-0.107198,51.513757]}},{"type":"Feature","properties":{"Title":"Puck","Author":"Ouida","Character":"Harold Gerant","Class":"Poor","Location":"Thames river just beneath Westminster bridge","Longitude":"-0.123973","Latitude":"51.500836"},"geometry":{"type":"Point","coordinates":[-0.123973,51.500836]}},{"type":"Feature","properties":{"Title":"Puck","Author":"Ouida","Character":"Gladys","Class":"Poor","Location":"The country/ sussex","Longitude":"-0.173796","Latitude":"51.513493"},"geometry":{"type":"Point","coordinates":[-0.173796,51.513493]}},{"type":"Feature","properties":{"Title":"Puck","Author":"Ouida","Character":"Gladys","Class":"Poor","Location":"London","Longitude":"-0.071321","Latitude":"51.514246"},"geometry":{"type":"Point","coordinates":[-0.071321,51.514246]}},{"type":"Feature","properties":{"Title":"Puck","Author":"Ouida","Character":"Gladys","Class":"Poor","Location":"Esher ","Longitude":"-0.36567","Latitude":"51.369621"},"geometry":{"type":"Point","coordinates":[-0.36567,51.369621]}},{"type":"Feature","properties":{"Title":"Puck","Author":"Ouida","Character":"Gladys","Class":"Poor","Location":"Coronet theater","Longitude":"-0.19816","Latitude":"51.508648"},"geometry":{"type":"Point","coordinates":[-0.19816,51.508648]}},{"type":"Feature","properties":{"Title":"Puck","Author":"Ouida","Character":"Gladys","Class":"Poor","Location":"Rotten Row","Longitude":"-0.165731","Latitude":"51.507282"},"geometry":{"type":"Point","coordinates":[-0.165731,51.507282]}},{"type":"Feature","properties":{"Title":"Puck","Author":"Ouida","Character":"Gladys","Class":"Poor","Location":"Chelsea","Longitude":"-0.171009","Latitude":"51.486891"},"geometry":{"type":"Point","coordinates":[-0.171009,51.486891]}},{"type":"Feature","properties":{"Title":"Puck","Author":"Ouida","Character":"Gladys","Class":"Poor","Location":"Coronet theater","Longitude":"-0.19816","Latitude":"51.508648"},"geometry":{"type":"Point","coordinates":[-0.19816,51.508648]}},{"type":"Feature","properties":{"Title":"Puck","Author":"Ouida","Character":"Gladys","Class":"Poor","Location":"Henley","Longitude":"-0.900181","Latitude":"51.550261"},"geometry":{"type":"Point","coordinates":[-0.900181,51.550261]}},{"type":"Feature","properties":{"Title":"Puck","Author":"Ouida","Character":"Gladys","Class":"Poor","Location":"Wargrave ","Longitude":"-0.874927","Latitude":"51.501711"},"geometry":{"type":"Point","coordinates":[-0.874927,51.501711]}},{"type":"Feature","properties":{"Title":"Puck","Author":"Ouida","Character":"Gladys","Class":"Poor","Location":"Hyde park","Longitude":"-0.165772","Latitude":"51.507241"},"geometry":{"type":"Point","coordinates":[-0.165772,51.507241]}},{"type":"Feature","properties":{"Title":"Puck","Author":"Ouida","Character":"Gladys","Class":"Poor","Location":"South Kensington ","Longitude":"-0.178883","Latitude":"51.496107"},"geometry":{"type":"Point","coordinates":[-0.178883,51.496107]}},{"type":"Feature","properties":{"Title":"Puck","Author":"Ouida","Character":"Gladys","Class":"Poor","Location":"Coronet theater","Longitude":"-0.19816","Latitude":"51.508648"},"geometry":{"type":"Point","coordinates":[-0.19816,51.508648]}},{"type":"Feature","properties":{"Title":"Puck","Author":"Ouida","Character":"Lillian Lee or Lettice Dean","Class":"Poor","Location":"The country","Longitude":"-0.173796","Latitude":"51.513493"},"geometry":{"type":"Point","coordinates":[-0.173796,51.513493]}},{"type":"Feature","properties":{"Title":"Puck","Author":"Ouida","Character":"Lillian Lee or Lettice Dean","Class":"Poor","Location":"London","Longitude":"-0.071321","Latitude":"51.514246"},"geometry":{"type":"Point","coordinates":[-0.071321,51.514246]}},{"type":"Feature","properties":{"Title":"Puck","Author":"Ouida","Character":"Lillian Lee or Lettice Dean","Class":"Poor","Location":"Rotten Row","Longitude":"-0.165731","Latitude":"51.507282"},"geometry":{"type":"Point","coordinates":[-0.165731,51.507282]}},{"type":"Feature","properties":{"Title":"Puck","Author":"Ouida","Character":"Lillian Lee or Lettice Dean","Class":"Poor","Location":"Rotten Row","Longitude":"-0.165731","Latitude":"51.507282"},"geometry":{"type":"Point","coordinates":[-0.165731,51.507282]}},{"type":"Feature","properties":{"Title":"Puck","Author":"Ouida","Character":"Ferrors","Class":"Working_Class","Location":"3 blocks from Coronet","Longitude":"-0.197114","Latitude":"51.508979"},"geometry":{"type":"Point","coordinates":[-0.197114,51.508979]}},{"type":"Feature","properties":{"Title":"Puck","Author":"Ouida","Character":"Earl of Guilliadene or Ned","Class":"Aristocracy","Location":"3 blocks from Coronet","Longitude":"-0.197114","Latitude":"51.508979"},"geometry":{"type":"Point","coordinates":[-0.197114,51.508979]}},{"type":"Feature","properties":{"Title":"Puck","Author":"Ouida","Character":"Earl of Guilliadene or Ned","Class":"Aristocracy","Location":"Bonniebelle/channel","Longitude":"-0.137434","Latitude":"50.826989"},"geometry":{"type":"Point","coordinates":[-0.137434,50.826989]}},{"type":"Feature","properties":{"Title":"Puck","Author":"Ouida","Character":"Earl of Guilliadene or Ned","Class":"Aristocracy","Location":"Germany","Longitude":"10.272262","Latitude":"51.038519"},"geometry":{"type":"Point","coordinates":[10.272262,51.038519]}},{"type":"Feature","properties":{"Title":"Puck","Author":"Ouida","Character":"Earl of Guilliadene or Ned","Class":"Aristocracy","Location":"Coronet theater","Longitude":"-0.19816","Latitude":"51.508648"},"geometry":{"type":"Point","coordinates":[-0.19816,51.508648]}},{"type":"Feature","properties":{"Title":"Puck","Author":"Ouida","Character":"Earl of Guilliadene or Ned","Class":"Aristocracy","Location":"Rotten Row","Longitude":"-0.165731","Latitude":"51.507282"},"geometry":{"type":"Point","coordinates":[-0.165731,51.507282]}},{"type":"Feature","properties":{"Title":"Puck","Author":"Ouida","Character":"Earl of Guilliadene or Ned","Class":"Aristocracy","Location":"Chelsea","Longitude":"-0.171009","Latitude":"51.486891"},"geometry":{"type":"Point","coordinates":[-0.171009,51.486891]}},{"type":"Feature","properties":{"Title":"Puck","Author":"Ouida","Character":"Earl of Guilliadene or Ned","Class":"Aristocracy","Location":"Henley","Longitude":"-0.900181","Latitude":"51.550261"},"geometry":{"type":"Point","coordinates":[-0.900181,51.550261]}},{"type":"Feature","properties":{"Title":"Puck","Author":"Ouida","Character":"Earl of Guilliadene or Ned","Class":"Aristocracy","Location":"Wargrave ","Longitude":"-0.874927","Latitude":"51.501711"},"geometry":{"type":"Point","coordinates":[-0.874927,51.501711]}},{"type":"Feature","properties":{"Title":"Puck","Author":"Ouida","Character":"Earl of Guilliadene or Ned","Class":"Aristocracy","Location":"Hyde park","Longitude":"-0.165772","Latitude":"51.507241"},"geometry":{"type":"Point","coordinates":[-0.165772,51.507241]}},{"type":"Feature","properties":{"Title":"Puck","Author":"Ouida","Character":"Mark Mountmorris","Class":"Working_Class","Location":"3 blocks from Coronet","Longitude":"-0.197114","Latitude":"51.508979"},"geometry":{"type":"Point","coordinates":[-0.197114,51.508979]}},{"type":"Feature","properties":{"Title":"Puck","Author":"Ouida","Character":"Mrs. Gertrude D'Eyncourt","Class":"Fallen Aristocracy","Location":"London stage","Longitude":"-0.124976","Latitude":"51.53258"},"geometry":{"type":"Point","coordinates":[-0.124976,51.53258]}},{"type":"Feature","properties":{"Title":"Puck","Author":"Ouida","Character":"Mrs. Gertrude D'Eyncourt","Class":"Fallen Aristocracy","Location":"Homburg, Germany","Longitude":"7.340883","Latitude":"49.330369"},"geometry":{"type":"Point","coordinates":[7.340883,49.330369]}},{"type":"Feature","properties":{"Title":"Puck","Author":"Ouida","Character":"Alice Beaujolais","Class":"Aristocracy","Location":"London","Longitude":"-0.071321","Latitude":"51.514246"},"geometry":{"type":"Point","coordinates":[-0.071321,51.514246]}},{"type":"Feature","properties":{"Title":"Puck","Author":"Ouida","Character":"Alice Beaujolais","Class":"Aristocracy","Location":"St James street","Longitude":"-0.139306","Latitude":"51.506727"},"geometry":{"type":"Point","coordinates":[-0.139306,51.506727]}},{"type":"Feature","properties":{"Title":"Puck","Author":"Ouida","Character":"Alice Beaujolais","Class":"Aristocracy","Location":"Ascot","Longitude":"-0.675758","Latitude":"51.407888"},"geometry":{"type":"Point","coordinates":[-0.675758,51.407888]}},{"type":"Feature","properties":{"Title":"Puck","Author":"Ouida","Character":"Alice Beaujolais","Class":"Aristocracy","Location":"Germany","Longitude":"10.272262","Latitude":"51.038519"},"geometry":{"type":"Point","coordinates":[10.272262,51.038519]}},{"type":"Feature","properties":{"Title":"Puck","Author":"Ouida","Character":"Alice Beaujolais","Class":"Aristocracy","Location":"Coronet theater","Longitude":"-0.19816","Latitude":"51.508648"},"geometry":{"type":"Point","coordinates":[-0.19816,51.508648]}},{"type":"Feature","properties":{"Title":"Puck","Author":"Ouida","Character":"Lady Otho","Class":"Aristocracy","Location":"Channel","Longitude":"-0.517975","Latitude":"50.467211"},"geometry":{"type":"Point","coordinates":[-0.517975,50.467211]}},{"type":"Feature","properties":{"Title":"Puck","Author":"Ouida","Character":"Lady Otho","Class":"Aristocracy","Location":"Rome","Longitude":"12.496365","Latitude":"41.902782"},"geometry":{"type":"Point","coordinates":[12.496365,41.902782]}},{"type":"Feature","properties":{"Title":"Puck","Author":"Ouida","Character":"Lady Otho","Class":"Aristocracy","Location":"Rotten Row","Longitude":"-0.165731","Latitude":"51.507282"},"geometry":{"type":"Point","coordinates":[-0.165731,51.507282]}},{"type":"Feature","properties":{"Title":"Puck","Author":"Ouida","Character":"Maude Delamere","Class":"Aristocracy","Location":"Rotten Row","Longitude":"-0.165731","Latitude":"51.507282"},"geometry":{"type":"Point","coordinates":[-0.165731,51.507282]}},{"type":"Feature","properties":{"Title":"Puck","Author":"Ouida","Character":"Maude Delamere","Class":"Aristocracy","Location":"Richmond hill ","Longitude":"-0.29981","Latitude":"51.454208"},"geometry":{"type":"Point","coordinates":[-0.29981,51.454208]}},{"type":"Feature","properties":{"Title":"Puck","Author":"Ouida","Character":"Maude Delamere","Class":"Aristocracy","Location":"Coronet theater","Longitude":"-0.19816","Latitude":"51.508648"},"geometry":{"type":"Point","coordinates":[-0.19816,51.508648]}},{"type":"Feature","properties":{"Title":"Puck","Author":"Ouida","Character":"Maude Delamere","Class":"Aristocracy","Location":"Spa ","Longitude":"-0.137434","Latitude":"50.826989"},"geometry":{"type":"Point","coordinates":[-0.137434,50.826989]}},{"type":"Feature","properties":{"Title":"Puck","Author":"Ouida","Character":"Maude Delamere","Class":"Aristocracy","Location":"Homburg, Germany","Longitude":"7.340883","Latitude":"49.330369"},"geometry":{"type":"Point","coordinates":[7.340883,49.330369]}},{"type":"Feature","properties":{"Title":"Puck","Author":"Ouida","Character":"Maude Delamere","Class":"Aristocracy","Location":"Baden ","Longitude":"8.226383","Latitude":"48.772326"},"geometry":{"type":"Point","coordinates":[8.226383,48.772326]}},{"type":"Feature","properties":{"Title":"Puck","Author":"Ouida","Character":"Maude Delamere","Class":"Aristocracy","Location":"Coronet theater","Longitude":"-0.19816","Latitude":"51.508648"},"geometry":{"type":"Point","coordinates":[-0.19816,51.508648]}},{"type":"Feature","properties":{"Title":"Puck","Author":"Ouida","Character":"Duchess of Astolat","Class":"Aristocracy","Location":"Rotten Row","Longitude":"-0.165731","Latitude":"51.507282"},"geometry":{"type":"Point","coordinates":[-0.165731,51.507282]}},{"type":"Feature","properties":{"Title":"Puck","Author":"Ouida","Character":"Lady Gwendolyn","Class":"Aristocracy","Location":"Rotten Row","Longitude":"-0.165731","Latitude":"51.507282"},"geometry":{"type":"Point","coordinates":[-0.165731,51.507282]}},{"type":"Feature","properties":{"Title":"Puck","Author":"Ouida","Character":"Fiodora","Class":"Working_Class","Location":"Rotten Row","Longitude":"-0.165731","Latitude":"51.507282"},"geometry":{"type":"Point","coordinates":[-0.165731,51.507282]}},{"type":"Feature","properties":{"Title":"Puck","Author":"Ouida","Character":"Baron Moresco","Class":"Aristocracy","Location":"Rotten Row","Longitude":"-0.165731","Latitude":"51.507282"},"geometry":{"type":"Point","coordinates":[-0.165731,51.507282]}},{"type":"Feature","properties":{"Title":"Puck","Author":"Ouida","Character":"Lord Brune","Class":"Aristocracy","Location":"Rotten Row","Longitude":"-0.165731","Latitude":"51.507282"},"geometry":{"type":"Point","coordinates":[-0.165731,51.507282]}},{"type":"Feature","properties":{"Title":"Puck","Author":"Ouida","Character":"Lord Brune","Class":"Aristocracy","Location":"St James street","Longitude":"-0.139306","Latitude":"51.506727"},"geometry":{"type":"Point","coordinates":[-0.139306,51.506727]}},{"type":"Feature","properties":{"Title":"Puck","Author":"Ouida","Character":"Lord Brune","Class":"Aristocracy","Location":"Hyde park","Longitude":"-0.165772","Latitude":"51.507241"},"geometry":{"type":"Point","coordinates":[-0.165772,51.507241]}},{"type":"Feature","properties":{"Title":"Puck","Author":"Ouida","Character":"Freddy Orforf","Class":"Aristocracy","Location":"Rotten Row","Longitude":"-0.165731","Latitude":"51.507282"},"geometry":{"type":"Point","coordinates":[-0.165731,51.507282]}},{"type":"Feature","properties":{"Title":"Puck","Author":"Ouida","Character":"Freddy Orforf","Class":"Aristocracy","Location":"St James street","Longitude":"-0.139306","Latitude":"51.506727"},"geometry":{"type":"Point","coordinates":[-0.139306,51.506727]}},{"type":"Feature","properties":{"Title":"Puck","Author":"Ouida","Character":"Astolat dog","Class":"Purebred","Location":"Rotten Row","Longitude":"-0.165731","Latitude":"51.507282"},"geometry":{"type":"Point","coordinates":[-0.165731,51.507282]}},{"type":"Feature","properties":{"Title":"Puck","Author":"Ouida","Character":"Astolat dog","Class":"Purebred","Location":"Rotten Row","Longitude":"-0.165731","Latitude":"51.507282"},"geometry":{"type":"Point","coordinates":[-0.165731,51.507282]}},{"type":"Feature","properties":{"Title":"Puck","Author":"Ouida","Character":"Philip Cornaro","Class":"Working_Class","Location":"Biscay coast","Longitude":"-0.517355","Latitude":"50.816627"},"geometry":{"type":"Point","coordinates":[-0.517355,50.816627]}},{"type":"Feature","properties":{"Title":"Puck","Author":"Ouida","Character":"Peel Vavasour","Class":"Working_Class","Location":"Rotten Row","Longitude":"-0.165731","Latitude":"51.507282"},"geometry":{"type":"Point","coordinates":[-0.165731,51.507282]}},{"type":"Feature","properties":{"Title":"Puck","Author":"Ouida","Character":"Sir George Maude of Effingham","Class":"Aristocracy","Location":"Rotten Row","Longitude":"-0.165731","Latitude":"51.507282"},"geometry":{"type":"Point","coordinates":[-0.165731,51.507282]}},{"type":"Feature","properties":{"Title":"Puck","Author":"Ouida","Character":"Sir George Maude of Effingham","Class":"Aristocracy","Location":"Paris","Longitude":"2.352222","Latitude":"48.856613"},"geometry":{"type":"Point","coordinates":[2.352222,48.856613]}},{"type":"Feature","properties":{"Title":"Puck","Author":"Ouida","Character":"Vivyan Bruce","Class":"Working_Class","Location":"Rotten Row","Longitude":"-0.165731","Latitude":"51.507282"},"geometry":{"type":"Point","coordinates":[-0.165731,51.507282]}},{"type":"Feature","properties":{"Title":"Puck","Author":"Ouida","Character":"Beatrice Silviera","Class":"Working_Class","Location":"Cliefden","Longitude":"-10.02025","Latitude":"53.48911"},"geometry":{"type":"Point","coordinates":[-10.02025,53.48911]}},{"type":"Feature","properties":{"Title":"Puck","Author":"Ouida","Character":"Jupiter Tonans","Class":"Working_Class","Location":"Coronet theater","Longitude":"-0.19816","Latitude":"51.508648"},"geometry":{"type":"Point","coordinates":[-0.19816,51.508648]}},{"type":"Feature","properties":{"Title":"Puck","Author":"Ouida","Character":"Duke of Astolat","Class":"Aristocracy","Location":"Richmond hill ","Longitude":"-0.29981","Latitude":"51.454208"},"geometry":{"type":"Point","coordinates":[-0.29981,51.454208]}},{"type":"Feature","properties":{"Title":"Puck","Author":"Ouida","Character":" Ned Guilliadene","Class":"Unknown","Location":"Richmond hill ","Longitude":"-0.29981","Latitude":"51.454208"},"geometry":{"type":"Point","coordinates":[-0.29981,51.454208]}},{"type":"Feature","properties":{"Title":"Puck","Author":"Ouida","Character":"Paget Ablemarle","Class":"Aristocracy","Location":"3 blocks from Coronet","Longitude":"-0.197114","Latitude":"51.508979"},"geometry":{"type":"Point","coordinates":[-0.197114,51.508979]}},{"type":"Feature","properties":{"Title":"Puck","Author":"Ouida","Character":"Old Wynch","Class":"Working_Class","Location":"3 blocks from Coronet","Longitude":"-0.197114","Latitude":"51.508979"},"geometry":{"type":"Point","coordinates":[-0.197114,51.508979]}},{"type":"Feature","properties":{"Title":"Puck","Author":"Ouida","Character":"Old Wynch","Class":"Working_Class","Location":"Surrey","Longitude":"-0.05441","Latitude":"51.49923"},"geometry":{"type":"Point","coordinates":[-0.05441,51.49923]}},{"type":"Feature","properties":{"Title":"Puck","Author":"Ouida","Character":" Nellie Brown","Class":"Working_Class","Location":"Berks","Longitude":"-1.193017","Latitude":"51.518769"},"geometry":{"type":"Point","coordinates":[-1.193017,51.518769]}},{"type":"Feature","properties":{"Title":"Puck","Author":"Ouida","Character":" Nellie Brown","Class":"Working_Class","Location":"London","Longitude":"-0.127758","Latitude":"51.507351"},"geometry":{"type":"Point","coordinates":[-0.127758,51.507351]}},{"type":"Feature","properties":{"Title":"Puck","Author":"Ouida","Character":" Nellie Brown","Class":"Working_Class","Location":"3 blocks from Coronet","Longitude":"-0.197114","Latitude":"51.508979"},"geometry":{"type":"Point","coordinates":[-0.197114,51.508979]}},{"type":"Feature","properties":{"Title":"Puck","Author":"Ouida","Character":" Nellie Brown","Class":"Working_Class","Location":"Coronet theater","Longitude":"-0.19816","Latitude":"51.508648"},"geometry":{"type":"Point","coordinates":[-0.19816,51.508648]}},{"type":"Feature","properties":{"Title":"Puck","Author":"Ouida","Character":" Nellie Brown","Class":"Working_Class","Location":"Palace theater in the Strand","Longitude":"-0.129469","Latitude":"51.513449"},"geometry":{"type":"Point","coordinates":[-0.129469,51.513449]}},{"type":"Feature","properties":{"Title":"Puck","Author":"Ouida","Character":" Nellie Brown","Class":"Working_Class","Location":"South Kensington ","Longitude":"-0.178883","Latitude":"51.496107"},"geometry":{"type":"Point","coordinates":[-0.178883,51.496107]}},{"type":"Feature","properties":{"Title":"Puck","Author":"Ouida","Character":" Nellie Brown","Class":"Working_Class","Location":"South kensington","Longitude":"-0.215595","Latitude":"51.514273"},"geometry":{"type":"Point","coordinates":[-0.215595,51.514273]}},{"type":"Feature","properties":{"Title":"Puck","Author":"Ouida","Character":"Prince de Ferras ","Class":"Aristocracy","Location":"Ascot","Longitude":"-0.675758","Latitude":"51.407888"},"geometry":{"type":"Point","coordinates":[-0.675758,51.407888]}},{"type":"Feature","properties":{"Title":"Puck","Author":"Ouida","Character":"Neil Strathalan","Class":"Aristocracy","Location":"Norway","Longitude":"9.395836","Latitude":"61.901033"},"geometry":{"type":"Point","coordinates":[9.395836,61.901033]}},{"type":"Feature","properties":{"Title":"Puck","Author":"Ouida","Character":"Neil Strathalan","Class":"Aristocracy","Location":"Bucks","Longitude":"-0.811092","Latitude":"51.865959"},"geometry":{"type":"Point","coordinates":[-0.811092,51.865959]}},{"type":"Feature","properties":{"Title":"Puck","Author":"Ouida","Character":"Spirka","Class":"Purebred","Location":"Raulthelhautszeim","Longitude":"-4.316908","Latitude":"57.075273"},"geometry":{"type":"Point","coordinates":[-4.316908,57.075273]}},{"type":"Feature","properties":{"Title":"Puck","Author":"Ouida","Character":"Spirka","Class":"Purebred","Location":"Between civita vecchio and rome","Longitude":"12.11831","Latitude":"41.967678"},"geometry":{"type":"Point","coordinates":[12.11831,41.967678]}},{"type":"Feature","properties":{"Title":"Puck","Author":"Ouida","Character":"Matteo","Class":"Lower_Class","Location":"Between civita vecchio and rome","Longitude":"12.11831","Latitude":"41.967678"},"geometry":{"type":"Point","coordinates":[12.11831,41.967678]}},{"type":"Feature","properties":{"Title":"Puck","Author":"Ouida","Character":"Giacone ","Class":"Lower_Class","Location":"Campagna ","Longitude":"15.10644","Latitude":"40.663342"},"geometry":{"type":"Point","coordinates":[15.10644,40.663342]}},{"type":"Feature","properties":{"Title":"Puck","Author":"Ouida","Character":"Giacone ","Class":"Lower_Class","Location":"Rome","Longitude":"12.496365","Latitude":"41.902782"},"geometry":{"type":"Point","coordinates":[12.496365,41.902782]}},{"type":"Feature","properties":{"Title":"Puck","Author":"Ouida","Character":"Giacone ","Class":"Lower_Class","Location":"Ostia","Longitude":"9.84587","Latitude":"44.519539"},"geometry":{"type":"Point","coordinates":[9.84587,44.519539]}},{"type":"Feature","properties":{"Title":"Puck","Author":"Ouida","Character":"Giacone ","Class":"Lower_Class","Location":"Marseille ","Longitude":"5.36978","Latitude":"43.296482"},"geometry":{"type":"Point","coordinates":[5.36978,43.296482]}},{"type":"Feature","properties":{"Title":"Puck","Author":"Ouida","Character":"Giacone ","Class":"Lower_Class","Location":"Paris","Longitude":"2.352222","Latitude":"48.856613"},"geometry":{"type":"Point","coordinates":[2.352222,48.856613]}},{"type":"Feature","properties":{"Title":"Puck","Author":"Ouida","Character":"Giacone ","Class":"Lower_Class","Location":"Sevres","Longitude":"2.21059","Latitude":"48.824169"},"geometry":{"type":"Point","coordinates":[2.21059,48.824169]}},{"type":"Feature","properties":{"Title":"Puck","Author":"Ouida","Character":"Giacone ","Class":"Lower_Class","Location":"Versailles ","Longitude":"2.131538","Latitude":"48.801488"},"geometry":{"type":"Point","coordinates":[2.131538,48.801488]}},{"type":"Feature","properties":{"Title":"Puck","Author":"Ouida","Character":"Russ","Class":"Pet","Location":"Silver stag","Longitude":"0.230698","Latitude":"43.993307"},"geometry":{"type":"Point","coordinates":[0.230698,43.993307]}},{"type":"Feature","properties":{"Title":"Puck","Author":"Ouida","Character":"Madelon","Class":"Poor","Location":"Silver stag","Longitude":"0.230698","Latitude":"43.993307"},"geometry":{"type":"Point","coordinates":[0.230698,43.993307]}},{"type":"Feature","properties":{"Title":"Puck","Author":"Ouida","Character":"Madelon","Class":"Poor","Location":"Paris","Longitude":"2.352222","Latitude":"48.856613"},"geometry":{"type":"Point","coordinates":[2.352222,48.856613]}},{"type":"Feature","properties":{"Title":"Puck","Author":"Ouida","Character":"Madelon","Class":"Poor","Location":"Silver stag","Longitude":"0.230698","Latitude":"43.993307"},"geometry":{"type":"Point","coordinates":[0.230698,43.993307]}},{"type":"Feature","properties":{"Title":"Puck","Author":"Ouida","Character":"Madelon","Class":"Poor","Location":"Convent","Longitude":"2.345822","Latitude":"48.833399"},"geometry":{"type":"Point","coordinates":[2.345822,48.833399]}},{"type":"Feature","properties":{"Title":"Puck","Author":"Ouida","Character":"Carlos Merle","Class":"Working_Class","Location":"Silver stag","Longitude":"0.230698","Latitude":"43.993307"},"geometry":{"type":"Point","coordinates":[0.230698,43.993307]}},{"type":"Feature","properties":{"Title":"Puck","Author":"Ouida","Character":"Carlos Merle","Class":"Working_Class","Location":"Paris","Longitude":"2.352222","Latitude":"48.856613"},"geometry":{"type":"Point","coordinates":[2.352222,48.856613]}},{"type":"Feature","properties":{"Title":"Puck","Author":"Ouida","Character":"Carlos Merle","Class":"Working_Class","Location":"Bois ","Longitude":"2.248983","Latitude":"48.862378"},"geometry":{"type":"Point","coordinates":[2.248983,48.862378]}},{"type":"Feature","properties":{"Title":"Puck","Author":"Ouida","Character":"Manon Bris","Class":"Working_Class","Location":"Silver stag","Longitude":"0.230698","Latitude":"43.993307"},"geometry":{"type":"Point","coordinates":[0.230698,43.993307]}},{"type":"Feature","properties":{"Title":"Puck","Author":"Ouida","Character":"Madame Reine","Class":"Working_Class","Location":"Alps","Longitude":"9.657","Latitude":"46.887619"},"geometry":{"type":"Point","coordinates":[9.657,46.887619]}},{"type":"Feature","properties":{"Title":"Puck","Author":"Ouida","Character":"Madame Reine","Class":"Working_Class","Location":"Paris","Longitude":"0.230698","Latitude":"43.993307"},"geometry":{"type":"Point","coordinates":[0.230698,43.993307]}},{"type":"Feature","properties":{"Title":"Puck","Author":"Ouida","Character":"Remy","Class":"Working_Class","Location":"Paris","Longitude":"0.230698","Latitude":"43.993307"},"geometry":{"type":"Point","coordinates":[0.230698,43.993307]}},{"type":"Feature","properties":{"Title":"Puck","Author":"Ouida","Character":"Tambour","Class":"Purebred","Location":"Paris","Longitude":"0.230698","Latitude":"43.993307"},"geometry":{"type":"Point","coordinates":[0.230698,43.993307]}},{"type":"Feature","properties":{"Title":"Puck","Author":"Ouida","Character":"Mariquita","Class":"Poor","Location":"Paris","Longitude":"0.230698","Latitude":"43.993307"},"geometry":{"type":"Point","coordinates":[0.230698,43.993307]}},{"type":"Feature","properties":{"Title":"Puck","Author":"Ouida","Character":"Royston Wressyl","Class":"Service_Animal","Location":"Coronet theater","Longitude":"-0.19816","Latitude":"51.508648"},"geometry":{"type":"Point","coordinates":[-0.19816,51.508648]}},{"type":"Feature","properties":{"Title":"Puck","Author":"Ouida","Character":"Royston Wressyl","Class":"Service_Animal","Location":"Leviathon","Longitude":"-0.082225","Latitude":"51.512714"},"geometry":{"type":"Point","coordinates":[-0.082225,51.512714]}},{"type":"Feature","properties":{"Title":"Puck","Author":"Ouida","Character":"Mrs. Riversleigh","Class":"Unknown","Location":"Park","Longitude":"-0.165772","Latitude":"51.507241"},"geometry":{"type":"Point","coordinates":[-0.165772,51.507241]}},{"type":"Feature","properties":{"Title":"Puck","Author":"Ouida","Character":"Mrs. Riversleigh","Class":"Unknown","Location":"Coronet theater","Longitude":"-0.19816","Latitude":"51.508648"},"geometry":{"type":"Point","coordinates":[-0.19816,51.508648]}},{"type":"Feature","properties":{"Title":"Puck","Author":"Ouida","Character":"Mrs. Riversleigh","Class":"Unknown","Location":"Leviathon","Longitude":"-0.082225","Latitude":"51.512714"},"geometry":{"type":"Point","coordinates":[-0.082225,51.512714]}},{"type":"Feature","properties":{"Title":"Puck","Author":"Ouida","Character":"Margett Llansaint","Class":"Working_Class","Location":"Esher ","Longitude":"-0.36567","Latitude":"51.369621"},"geometry":{"type":"Point","coordinates":[-0.36567,51.369621]}},{"type":"Feature","properties":{"Title":"Puck","Author":"Ouida","Character":"Patch","Class":"Lower_Class","Location":"Esher ","Longitude":"-0.36567","Latitude":"51.369621"},"geometry":{"type":"Point","coordinates":[-0.36567,51.369621]}},{"type":"Feature","properties":{"Title":"Puck","Author":"Ouida","Character":"Lady Hilda St. Maurice,","Class":"Aristocracy","Location":"Rotten Row","Longitude":"-0.165731","Latitude":"51.507282"},"geometry":{"type":"Point","coordinates":[-0.165731,51.507282]}},{"type":"Feature","properties":{"Title":"Puck","Author":"Ouida","Character":" Countess of Grancedieu","Class":"Aristocracy","Location":"Rotten Row","Longitude":"-0.165731","Latitude":"51.507282"},"geometry":{"type":"Point","coordinates":[-0.165731,51.507282]}},{"type":"Feature","properties":{"Title":"Puck","Author":"Ouida","Character":"Duchess of Llandrysyl","Class":"Aristocracy","Location":"North wales","Longitude":"-3.847175","Latitude":"53.197682"},"geometry":{"type":"Point","coordinates":[-3.847175,53.197682]}},{"type":"Feature","properties":{"Title":"Puck","Author":"Ouida","Character":"Duchess of Llandrysyl","Class":"Aristocracy","Location":"Rotten Row","Longitude":"-0.165731","Latitude":"51.507282"},"geometry":{"type":"Point","coordinates":[-0.165731,51.507282]}},{"type":"Feature","properties":{"Title":"Puck","Author":"Ouida","Character":"Ida Warwick","Class":"Middle_Class","Location":"Belgravia","Longitude":"-0.154895","Latitude":"51.498393"},"geometry":{"type":"Point","coordinates":[-0.154895,51.498393]}},{"type":"Feature","properties":{"Title":"Puck","Author":"Ouida","Character":"Ida Warwick","Class":"Middle_Class","Location":"Rotten Row","Longitude":"-0.165731","Latitude":"51.507282"},"geometry":{"type":"Point","coordinates":[-0.165731,51.507282]}},{"type":"Feature","properties":{"Title":"Puck","Author":"Ouida","Character":" Lady Cississiter","Class":"Aristocracy","Location":"Rotten Row","Longitude":"-0.165731","Latitude":"51.507282"},"geometry":{"type":"Point","coordinates":[-0.165731,51.507282]}},{"type":"Feature","properties":{"Title":"Puck","Author":"Ouida","Character":" Lady Cississiter","Class":"Aristocracy","Location":"Richmond","Longitude":"-0.303846","Latitude":"51.4642"},"geometry":{"type":"Point","coordinates":[-0.303846,51.4642]}},{"type":"Feature","properties":{"Title":"Puck","Author":"Ouida","Character":"Cissister","Class":"Aristocracy","Location":"Richmond ","Longitude":"-0.303846","Latitude":"51.4642"},"geometry":{"type":"Point","coordinates":[-0.303846,51.4642]}},{"type":"Feature","properties":{"Title":"Puck","Author":"Ouida","Character":"John Beaudesert","Class":"Service_Animal","Location":"Rotten Row","Longitude":"-0.165731","Latitude":"51.507282"},"geometry":{"type":"Point","coordinates":[-0.165731,51.507282]}},{"type":"Feature","properties":{"Title":"Puck","Author":"Ouida","Character":"Beatrice Leintwardine ","Class":"Aristocracy","Location":"Eton","Longitude":"-0.60905","Latitude":"51.48798"},"geometry":{"type":"Point","coordinates":[-0.60905,51.48798]}},{"type":"Feature","properties":{"Title":"Puck","Author":"Ouida","Character":"Eblis","Class":"Unknown","Location":"South Kensington ","Longitude":"-0.178883","Latitude":"51.496107"},"geometry":{"type":"Point","coordinates":[-0.178883,51.496107]}},{"type":"Feature","properties":{"Title":"Puck","Author":"Ouida","Character":"Abney Arcot","Class":"Middle_Class","Location":"Richmond ","Longitude":"-0.303846","Latitude":"51.4642"},"geometry":{"type":"Point","coordinates":[-0.303846,51.4642]}},{"type":"Feature","properties":{"Title":"Puck","Author":"Ouida","Character":"Lord Shamrock.","Class":"Aristocracy","Location":"Hyde park","Longitude":"-0.165772","Latitude":"51.507241"},"geometry":{"type":"Point","coordinates":[-0.165772,51.507241]}}]}